Stoppages,lat,lng,aerial_distance,orig_distance
Chinarpark,22.6244838,88.4382,1.77,2.5
Bally,22.6474,88.355342,12.68,21
Kona more,22.6228927,88.2924768,15.045637850382,26
Pakuria,22.6200176,88.2689848,17.419185705221,28
Alampur,22.5820498,88.2060556,24.017017477819,38
Dhulagarh Toll,22.5731795,88.1795762,26.8445195350702,40